City_ID,City,Lat,Lng,Max Temp,Humidity,Cloudiness,Wind Speed,Country,Date
0,sandnessjoen,66.0217,12.6316,9.12,93,75,6.17,NO,1696352525
1,madinat ash shamal,26.1293,51.2009,31.84,65,0,3.75,QA,1696352526
2,invercargill,-46.4,168.35,7.89,55,99,3.72,NZ,1696352526
3,west island,-12.1568,96.8225,24.99,69,83,7.2,CC,1696352527
4,nova sintra,14.8667,-24.7167,23.83,75,75,1.72,CV,1696352528
5,palafrugell,41.9174,3.1631,26.46,44,88,0.45,ES,1696352528
6,tiksi,71.6872,128.8694,-2.34,91,100,3.09,RU,1696352529
7,elverum,60.8819,11.5623,8.43,79,81,0.56,NO,1696352529
8,zhezqazghan,47.7833,67.7667,12.7,51,28,3.44,KZ,1696352530
9,muscatine,41.4667,-91.1335,29.46,42,0,5.66,US,1696352530
10,nguigmi,14.2495,13.1092,32.8,30,17,6.96,NE,1696352531
11,el calafate,-50.3408,-72.2768,8.21,63,41,2.3,AR,1696352532
12,freetown,8.484,-13.2299,27.68,78,98,4.34,SL,1696352533
13,haugesund,59.4138,5.268,14.12,82,75,8.75,NO,1696352533
14,kirensk,57.7853,108.1119,2.23,65,100,4.47,RU,1696352534
15,ust-tsilma,65.441,52.1498,3.67,81,99,4.47,RU,1696352534
16,tura,25.5198,90.2201,23.14,97,21,2.72,IN,1696352535
17,fale old settlement,-9.3852,-171.2468,28.27,79,16,8.27,TK,1696352535
18,maihar,24.2667,80.75,23.16,46,100,1.51,IN,1696352536
19,aasiaat,68.7098,-52.8699,-3.52,57,16,3.67,GL,1696352536
20,grytviken,-54.2811,-36.5092,2.47,60,100,2.09,GS,1696352537
21,mount gambier,-37.8333,140.7667,5.53,90,47,0.61,AU,1696352538
22,kili,5.6439,169.1211,28.75,76,38,3.67,MH,1696352539
23,port-aux-francais,-49.35,70.2167,2.86,96,100,20.19,TF,1696352540
24,klyuchi,52.2667,79.1667,7.4,44,34,3.31,RU,1696352540
25,ust'-kut,56.7938,105.7672,1.35,98,100,4.02,RU,1696352541
26,hawaiian paradise park,19.5933,-154.9731,23.35,97,19,0.88,US,1696352541
27,puerto ayora,-0.7393,-90.3518,28.98,91,63,2.68,EC,1696352542
28,blackmans bay,-43.0167,147.3167,9.29,70,99,1.28,AU,1696352543
29,ta`u,-14.2336,-169.5144,26.56,82,43,8.82,AS,1696352543
30,kapustin yar,48.5831,45.7372,16.57,60,93,1.31,RU,1696352544
31,ushuaia,-54.8,-68.3,11.79,57,75,1.54,AR,1696352524
32,levuka,50.1834,-105.4011,10.9,87,75,3.09,CA,1696352544
33,la passe,45.5549,-0.8967,22.13,61,100,5.47,FR,1696352545
34,wailua homesteads,22.0669,-159.378,22.24,83,1,0.96,US,1696352546
35,hithadhoo,-0.6,73.0833,27.9,78,40,4.1,MV,1696352546
36,nagqu,31.5,92.0,4.88,71,11,2.68,CN,1696352547
37,adamstown,-25.066,-130.1015,20.33,70,29,8.45,PN,1696352547
38,brak,27.5496,14.2714,28.22,25,5,5.33,LY,1696352548
39,longyearbyen,78.2186,15.6401,-4.09,68,75,5.66,SJ,1696352548
40,alibag,18.6411,72.8792,28.04,78,45,0.86,IN,1696352549
41,olonkinbyen,70.9221,-8.7187,1.12,65,100,8.71,SJ,1696352549
42,stanley,54.868,-1.6985,13.77,78,20,9.77,GB,1696352549
43,constantia,44.1833,28.65,15.39,59,9,4.16,RO,1696352550
44,geraldton,-28.7667,114.6,12.23,82,0,5.14,AU,1696352551
45,yuzhno-sakhalinsk,46.9581,142.7337,12.31,100,16,0.0,RU,1696352551
46,bilibino,68.0546,166.4372,-17.12,98,79,2.24,RU,1696352551
47,broome,42.2506,-75.833,27.16,75,0,3.13,US,1696352552
48,jamestown,42.097,-79.2353,27.79,55,0,0.89,US,1696352526
49,kingston,17.997,-76.7936,32.53,68,20,3.13,JM,1696352064
50,punta arenas,-53.15,-70.9167,12.06,54,75,11.83,CL,1696352553
51,edinburgh of the seven seas,-37.0676,-12.3116,10.0,63,60,7.8,SH,1696352554
52,waitangi,-43.9535,-176.5597,8.23,78,99,3.13,NZ,1696352554
53,kismayo,-0.3582,42.5454,25.72,85,52,4.52,SO,1696352555
54,vanimo,-2.6741,141.3028,25.01,90,72,3.16,PG,1696352555
55,danville,36.586,-79.395,27.15,66,32,0.89,US,1696352391
56,choyr,46.3611,108.3611,3.79,57,0,4.39,MN,1696352556
57,punata,-17.55,-65.8333,29.88,24,27,3.57,BO,1696352557
58,iqaluit,63.7506,-68.5145,2.85,93,100,7.2,CA,1696352426
59,piti village,13.4626,144.6933,27.61,87,86,5.32,GU,1696352558
60,lazaro cardenas,17.9583,-102.2,26.76,86,100,1.35,MX,1696352533
61,tazovsky,67.4667,78.7,1.44,78,7,8.33,RU,1696352559
62,port hedland,-20.3167,118.5667,23.03,73,79,3.6,AU,1696352475
63,umea,63.8284,20.2597,9.95,87,0,2.06,SE,1696352478
64,tateyama,34.9833,139.8667,22.83,61,100,7.09,JP,1696352560
65,mizdah,31.4451,12.9801,24.27,42,16,5.97,LY,1696352561
66,albany,42.6001,-73.9662,27.24,68,0,0.45,US,1696352561
67,azovo,54.6997,73.0237,11.44,52,95,3.5,RU,1696352562
68,santana,-0.0583,-51.1817,35.1,52,40,7.2,BR,1696352274
69,zambezi,-13.5432,23.1047,28.99,18,73,2.72,ZM,1696352550
70,margaret river,-33.95,115.0667,11.85,75,24,1.31,AU,1696352563
71,temirlanovka,42.5994,69.2633,16.77,31,17,3.08,KZ,1696352564
72,yellowknife,62.456,-114.3525,8.01,95,100,2.57,CA,1696352461
73,bethel,41.3712,-73.414,27.02,67,3,0.45,US,1696352564
74,qianzhou,28.3167,109.7167,19.05,89,100,0.86,CN,1696352565
75,atafu village,-8.5421,-172.5159,28.49,78,44,7.71,TK,1696352566
76,yelizovo,53.1873,158.3805,8.78,100,75,2.0,RU,1696352566
77,antsiranana,-12.2787,49.2917,24.08,74,6,7.77,MG,1696352567
78,richfield,44.8833,-93.283,27.82,54,20,7.72,US,1696352515
79,susuman,62.7833,148.1667,-1.12,70,29,1.79,RU,1696352567
80,anadyr,64.75,177.4833,1.28,50,0,4.0,RU,1696352568
81,isla cristina,37.2,-7.3167,29.1,46,0,3.26,ES,1696352570
82,talnakh,69.4865,88.3972,0.67,92,100,9.09,RU,1696352570
83,tchibanga,-2.85,11.0333,26.14,75,95,2.74,GA,1696352571
84,kerikeri,-35.2268,173.9474,4.95,93,7,1.82,NZ,1696352306
85,hamilton,39.1834,-84.5333,30.35,50,0,1.34,US,1696352458
86,college,64.8569,-147.8028,-1.63,91,100,2.57,US,1696352572
87,masalovka,48.4053,40.2706,15.82,47,19,3.53,RU,1696352572
88,kailua-kona,19.6406,-155.9956,27.0,80,100,2.68,US,1696352316
89,nanao,37.05,136.9667,17.4,70,100,3.2,JP,1696352573
90,port mathurin,-19.6833,63.4167,23.51,78,1,3.92,MU,1696352573
91,salym,60.0625,71.4789,9.94,92,95,1.96,RU,1696352574
92,san patricio,28.017,-97.5169,32.4,63,31,3.61,US,1696352575
93,cestos city,5.46,-9.5828,26.37,78,98,5.17,LR,1696352575
94,cozumel,20.5083,-86.9458,31.64,89,12,1.34,MX,1696352576
95,puerto natales,-51.7236,-72.4875,12.25,54,40,7.2,CL,1696352576
96,chimore,-16.9833,-65.1333,35.29,39,79,2.54,BO,1696352577
97,pisco,-13.7,-76.2167,22.03,68,0,4.63,PE,1696352578
98,aitape,-3.1374,142.3475,24.76,85,90,1.76,PG,1696352578
99,muang phon-hong,18.4928,102.4172,24.88,94,47,1.19,LA,1696352579
100,westport,41.1415,-73.3579,27.72,64,3,0.89,US,1696352517
101,motygino,58.1831,94.7592,7.1,90,100,2.68,RU,1696352581
102,vadso,70.0744,29.7487,3.09,75,75,2.57,NO,1696352581
103,arrifes,37.7667,-25.7,22.14,83,40,4.63,PT,1696352581
104,sinop,41.7711,34.8709,9.97,85,62,0.81,TR,1696352582
105,nuuk,64.1835,-51.7216,5.34,70,75,0.0,GL,1696352050
106,san antonio de pale,-1.4014,5.6325,25.51,83,34,4.52,GQ,1696352583
107,qaqortoq,60.7167,-46.0333,2.63,89,100,1.9,GL,1696352583
108,roma,43.2128,-75.4557,27.07,72,1,1.34,US,1696352545
109,nzega,-2.479,29.5564,17.11,44,76,0.79,RW,1696352584
110,banikoara,11.2985,2.4386,23.93,92,100,2.26,BJ,1696352367
111,port saint john's,-31.6229,29.5448,21.3,81,0,5.22,ZA,1696352585
112,lae,-6.7221,146.9847,24.13,89,53,1.07,PG,1696352586
113,qamdo,31.1667,97.2333,6.4,68,27,2.16,CN,1696352586
114,akureyri,65.6835,-18.0878,4.96,87,75,3.09,IS,1696352587
115,arraial do cabo,-22.9661,-42.0278,23.98,73,40,3.6,BR,1696352588
116,quelimane,-17.8786,36.8883,23.97,64,40,4.63,MZ,1696352588
117,whitehorse,60.7161,-135.0538,5.05,92,100,4.63,CA,1696352589
118,mo i rana,66.3128,14.1428,9.07,94,75,1.03,NO,1696352589
119,meulaboh,4.1363,96.1285,25.64,86,100,2.75,ID,1696352590
120,mejit,10.2753,170.8646,28.21,80,90,7.53,MH,1696352590
121,luanda,-8.8368,13.2343,25.0,78,75,5.14,AO,1696352479
122,bredasdorp,-34.5322,20.0403,15.27,86,82,3.0,ZA,1696352591
123,isafjordur,66.0755,-23.124,4.02,75,75,5.66,IS,1696352591
124,petropavlovsk-kamchatsky,53.0452,158.6483,8.03,96,75,6.71,RU,1696352592
125,al jawf,29.5,38.75,26.83,33,100,5.42,SA,1696352592
126,binbrook,43.121,-79.804,29.38,56,0,3.09,CA,1696352593
127,baker city,44.7749,-117.8344,12.0,91,100,0.5,US,1696352507
128,papatowai,-46.5619,169.4708,9.92,48,78,2.23,NZ,1696352594
129,borkum,53.5809,6.6915,16.08,73,71,12.92,DE,1696352594
130,armidale,-30.5167,151.65,9.91,66,1,2.48,AU,1696352595
131,chauk,20.8833,94.8167,25.52,85,11,4.37,MM,1696352595
132,kiunga,-6.1219,141.2906,22.87,99,100,1.01,PG,1696352596
133,lebu,-37.6167,-73.65,12.0,60,33,3.92,CL,1696352596
134,krotovka,53.2858,51.1686,15.69,77,100,3.19,RU,1696352597
135,pacific grove,36.6177,-121.9166,18.58,86,20,3.13,US,1696352315
136,ciudad de armeria,18.9333,-103.9667,31.99,64,100,1.64,MX,1696352598
137,keflavik,64.0049,-22.5624,8.24,66,20,3.09,IS,1696352598
138,la'ie,21.6477,-157.9253,24.14,84,0,0.45,US,1696352599
139,bagnan,22.9242,88.14,26.94,96,79,3.44,IN,1696352599
140,guadalupe,25.6833,-100.25,30.22,56,35,2.72,MX,1696352340
141,n'zeto,-7.2312,12.8666,25.06,82,39,3.33,AO,1696352600
142,mount pearl,47.5166,-52.7813,16.85,73,75,5.14,CA,1696352601
143,kudahuvadhoo,2.6708,72.8944,28.31,74,100,5.58,MV,1696352601
144,dunedin,-45.8742,170.5036,8.22,74,64,1.34,NZ,1696352459
145,nouna,12.7333,-3.8667,38.03,21,85,6.21,BF,1696352603
146,muravlenko,63.7898,74.523,2.04,68,22,1.37,RU,1696352603
147,banyo,6.75,11.8167,20.64,92,88,0.56,CM,1696352604
148,viedma,-40.8135,-62.9967,14.44,45,100,5.15,AR,1696352442
149,al khums,32.6486,14.2619,24.2,64,10,4.97,LY,1696352605
150,lorengau,-2.0226,147.2712,25.56,90,100,3.15,PG,1696352605
151,ghat,24.9647,10.1728,30.2,27,61,6.3,LY,1696352553
152,hassi messaoud,31.6804,6.0729,30.92,25,0,3.09,DZ,1696352606
153,kone,-21.0595,164.8658,20.58,80,53,2.66,NC,1696352606
154,guanica,17.9716,-66.908,33.63,78,98,3.09,PR,1696352607
155,ribeira grande,38.5167,-28.7,23.22,68,20,7.72,PT,1696352608
156,huangpi,30.8845,114.3779,20.06,88,100,1.0,CN,1696352609
157,lautoka,-17.6167,177.4667,22.92,64,75,4.12,FJ,1696352609
158,port alfred,-33.5906,26.891,17.32,89,4,0.89,ZA,1696352610
159,broken hill,-31.95,141.4333,10.96,74,67,9.02,AU,1696352610
160,farasan,16.7022,42.1183,32.0,66,0,3.86,SA,1696352611
161,guerrero negro,27.9769,-114.0611,21.46,63,7,3.77,MX,1696352611
162,newman,37.3138,-121.0208,21.7,55,76,0.89,US,1696352612
163,sinabang,2.4803,96.3801,26.23,79,99,3.17,ID,1696352613
164,halifax,44.6453,-63.5724,24.63,46,75,6.69,CA,1696352246
165,tarnogskiy gorodok,60.4997,43.5761,9.72,70,100,5.44,RU,1696352614
166,cabo san lucas,22.8909,-109.9124,33.12,65,43,5.81,MX,1696352198
167,port lincoln,-34.7333,135.8667,10.67,64,85,7.08,AU,1696352615
168,laela,-8.5667,32.05,23.52,28,39,2.07,TZ,1696352615
169,canutama,-6.5339,-64.3831,41.73,18,63,1.85,BR,1696352616
170,enewetak,11.3474,162.3373,29.24,77,93,7.08,MH,1696352616
171,ilha de mocambique,-15.0342,40.7358,25.13,68,19,9.98,MZ,1696352617
172,uturoa,-16.7333,-151.4333,25.91,79,10,8.37,PF,1696352618
173,saipan,15.1355,145.701,28.79,76,69,7.16,MP,1696352618
174,suntar,62.1444,117.6319,-2.71,81,43,2.24,RU,1696352619
175,kapuskasing,49.4169,-82.4331,25.05,57,75,5.66,CA,1696352403
176,san sebastian de la gomera,28.0916,-17.1133,35.2,31,0,1.03,ES,1696352620
177,al kharijah,25.4514,30.5464,29.4,27,55,6.45,EG,1696352620
178,nelson bay,-32.7167,152.15,20.03,84,63,5.36,AU,1696352620
179,shitanjing,39.2342,106.3439,15.36,24,98,1.49,CN,1696352621
180,ust-nera,64.5667,143.2,-1.55,74,93,1.34,RU,1696352621
181,banlung,13.7468,107.0045,22.81,99,100,0.73,KH,1696352622
182,cole harbour,44.6724,-63.4751,24.54,46,75,6.69,CA,1696352622
183,champerico,14.3,-91.9167,33.3,69,91,3.85,GT,1696352622
184,al mutayrifi,25.4788,49.5576,36.19,32,0,2.42,SA,1696352623
185,gadzhiyevo,69.2551,33.3362,3.13,88,100,2.61,RU,1696352624
186,vernon,50.2581,-119.2691,14.05,92,66,0.45,CA,1696352624
187,khandyga,62.6667,135.6,5.58,90,100,0.94,RU,1696352625
188,porto novo,6.4965,2.6036,29.9,74,100,4.2,BJ,1696352625
189,lompoc,34.6391,-120.4579,25.47,76,0,2.57,US,1696352626
190,saint-joseph,-21.3667,55.6167,22.21,86,50,6.0,RE,1696352626
191,santa barbara,34.7333,-120.0343,22.41,30,79,1.07,US,1696352584
192,udachny,66.4167,112.4,-3.64,85,13,5.42,RU,1696352627
193,polyarnyy,69.1989,33.4478,3.45,89,100,2.56,RU,1696352627
194,laguna,38.421,-121.4238,23.38,54,0,2.06,US,1696352628
195,hermanus,-34.4187,19.2345,17.06,79,81,6.36,ZA,1696352628
196,saldanha,-33.0117,17.9442,20.03,88,100,7.58,ZA,1696352629
197,matoury,4.8483,-52.3317,33.98,52,20,6.17,GF,1696352629
198,namibe,-15.1961,12.1522,21.01,87,16,3.05,AO,1696352629
199,point pedro,9.8167,80.2333,27.17,84,50,9.79,LK,1696352630
200,namtsy,62.7161,129.6658,2.25,91,100,2.56,RU,1696352630
201,mariental,-24.6333,17.9667,31.44,19,51,7.63,NA,1696352631
202,mirny,62.5353,113.9611,-4.87,79,15,3.13,RU,1696352631
203,dawson creek,55.7666,-120.2362,11.8,47,0,5.66,CA,1696352631
204,newnham,-41.3833,147.1333,9.53,87,75,2.06,AU,1696352632
205,umluj,25.0213,37.2685,28.99,72,1,5.57,SA,1696352632
206,walvis bay,-22.9575,14.5053,18.23,63,21,8.07,NA,1696352633
207,hohr-grenzhausen,50.4333,7.6667,15.09,80,83,15.65,DE,1696352633
208,avarua,-21.2078,-159.775,22.03,68,100,4.63,CK,1696352633
209,diego de almagro,-26.3667,-70.05,22.25,25,22,4.41,CL,1696352634
210,alofi,-19.0595,-169.9187,21.94,94,100,6.69,NU,1696352634
211,kodiak,57.79,-152.4072,4.1,58,0,2.94,US,1696352635
212,sengiley,53.9622,48.7944,12.46,81,36,1.86,RU,1696352636
213,flying fish cove,-10.4217,105.6791,23.82,83,100,6.17,CX,1696352636
214,yichang,30.7144,111.2847,19.6,85,100,0.5,CN,1696352636
215,bardsir,29.9227,56.5743,21.37,23,2,0.93,IR,1696352637
216,molochnoye,59.2917,39.6787,11.01,71,100,7.15,RU,1696352637
217,acarau,-2.8856,-40.12,31.28,57,90,9.09,BR,1696352638
218,idri,27.5,13.2667,28.16,28,8,4.03,LY,1696352638
219,portland,45.5234,-122.6762,16.4,95,100,3.09,US,1696352200
220,bosobolo,4.1833,19.9,22.34,95,98,0.96,CD,1696352639
221,vorgashor,67.5833,63.95,0.86,87,63,4.56,RU,1696352640
222,aripuana,-9.1667,-60.6333,38.99,26,62,0.96,BR,1696352521
223,kuqa,41.7278,82.9364,19.98,24,100,3.0,CN,1696352641
224,kapa'a,22.0752,-159.319,22.99,81,1,0.93,US,1696352641
225,ilulissat,69.2167,-51.1,0.01,40,20,4.63,GL,1696352641
226,romanovo,52.6182,81.2271,5.98,53,5,2.76,RU,1696352642
227,ribeira brava,32.65,-17.0667,29.28,79,65,3.43,PT,1696352642
228,hastings,50.8552,0.5729,17.73,26,22,8.22,GB,1696352643
229,hasaki,35.7333,140.8333,20.22,58,96,4.87,JP,1696352643
230,rosarito,32.3333,-117.0333,23.15,60,2,2.3,MX,1696352644
231,praia da vitoria,38.7333,-27.0667,23.2,78,75,5.77,PT,1696352644
232,saint-francois,46.4154,3.9054,20.69,60,0,3.09,FR,1696352645
233,eyl,7.9803,49.8164,27.02,78,53,7.53,SO,1696352554
234,knysna,-34.0363,23.0471,16.48,94,42,1.58,ZA,1696352646
235,nizhnyaya salda,58.0776,60.7202,10.87,93,100,2.02,RU,1696352646
236,iskateley,67.6803,53.1512,3.9,78,100,9.39,RU,1696352647
237,afaahiti,-17.75,-149.2833,23.93,82,79,7.07,PF,1696352647
238,thompson,55.7435,-97.8558,8.09,100,100,0.0,CA,1696352647
239,puerto deseado,-47.7503,-65.8938,12.1,48,99,0.15,AR,1696352648
240,puyang,29.4603,119.8861,21.37,89,93,1.68,CN,1696352648
241,amos,48.5669,-78.1162,24.54,53,26,3.57,CA,1696352581
242,reynosa,26.0833,-98.2833,35.39,57,40,2.14,MX,1696352441
243,basco,20.4487,121.9702,28.19,81,100,11.41,PH,1696352650
244,pajapan,18.25,-94.7,27.09,72,87,1.94,MX,1696352650
245,sur,22.5667,59.5289,29.27,61,4,0.27,OM,1696352650
246,elista,46.3078,44.2558,16.29,47,81,3.13,RU,1696352651
247,mogadishu,2.0371,45.3438,26.42,87,97,6.54,SO,1696352510
248,sai buri,6.7013,101.6168,25.92,85,98,2.51,TH,1696352652
249,vilyuchinsk,52.9306,158.4028,8.85,100,100,2.24,RU,1696352652
250,dolinsk,47.35,142.8,8.73,92,16,2.27,RU,1696352652
251,hirara,24.8,125.2833,27.92,94,75,7.2,JP,1696352653
252,gorontalo,0.5412,123.0595,23.68,91,72,0.81,ID,1696352653
253,ancud,-41.8697,-73.8203,10.48,60,9,2.7,CL,1696352654
254,borogontsy,62.6683,131.1683,1.27,92,100,3.13,RU,1696352654
255,xuchang,34.0167,113.8167,19.23,77,95,1.43,CN,1696352655
256,katsuren-haebaru,26.3369,127.8719,29.43,89,75,3.09,JP,1696352656
257,oliva de la frontera,38.276,-6.9187,32.07,21,4,3.06,ES,1696352656
258,altai,46.3722,96.2583,1.93,39,4,1.56,MN,1696352657
259,al muwayh,22.4333,41.7583,29.46,11,0,2.9,SA,1696352657
260,sitka,57.0531,-135.33,10.94,87,100,3.6,US,1696352658
261,zapolyarnyy,69.4154,30.8136,1.6,94,100,0.52,RU,1696352658
262,sabang,5.8933,95.3214,28.17,78,100,8.25,ID,1696352659
263,badger,64.8,-147.5333,-1.68,91,100,2.57,US,1696352659
264,freeport,40.6576,-73.5832,27.95,62,0,1.79,US,1696352459
265,luderitz,-26.6481,15.1594,20.08,57,2,5.88,NA,1696352660
266,karratha,-20.7377,116.8463,25.38,40,67,3.47,AU,1696352661
267,aras-asan,8.8908,126.3033,25.78,88,59,1.58,PH,1696352661
268,fang,19.9169,99.2145,22.58,98,8,0.63,TH,1696352662
269,huarmey,-10.0681,-78.1522,22.04,76,57,5.41,PE,1696352662
270,coquimbo,-29.9533,-71.3436,17.85,59,20,4.63,CL,1696352663
271,haiku-pauwela,20.9219,-156.3051,23.91,78,0,0.0,US,1696352663
272,jiangkou,25.4872,119.1986,24.83,81,60,5.02,CN,1696352664
273,sakakah,29.9697,40.2064,30.76,22,100,4.24,SA,1696352665
274,ugoofaaru,5.6667,73.0,27.14,81,100,6.31,MV,1696352665
275,dambatta,12.433,8.5154,29.06,40,91,1.43,NG,1696352666
276,bettiah,26.8,84.5,23.88,97,100,3.64,IN,1696352666
277,tofol,5.3248,163.0078,28.2,74,60,0.9,FM,1696352667
278,voi,-3.3945,38.563,24.43,67,93,5.97,KE,1696352668
279,merizo village,13.2658,144.6691,27.85,89,96,5.81,GU,1696352668
280,kidal,18.4411,1.4078,37.96,14,36,5.15,ML,1696352454
281,quang ngai,15.1167,108.8,25.44,92,100,2.34,VN,1696352669
282,sao vicente,-23.9631,-46.3919,33.1,56,100,3.09,BR,1696352669
283,luorong,24.4058,109.6086,28.24,71,63,0.12,CN,1696352670
284,new norfolk,-42.7826,147.0587,9.95,89,99,1.06,AU,1696352670
285,katsuura,35.1333,140.3,22.94,63,97,5.67,JP,1696352671
286,fada,9.5667,8.3,21.06,95,100,0.67,NG,1696352671
287,bathsheba,13.2167,-59.5167,32.34,74,20,5.66,BB,1696352672
288,shambu,9.5667,37.1,11.49,84,43,1.19,ET,1696352673
289,sept-iles,50.2001,-66.3821,15.59,58,40,7.2,CA,1696352421
290,boa vista,2.8197,-60.6733,34.99,41,40,3.6,BR,1696352674
291,ouani,-12.1322,44.4258,26.27,80,41,3.69,KM,1696352674
292,dudinka,69.4058,86.1778,0.9,86,88,8.49,RU,1696352674
293,kadugli,11.0167,29.7167,24.45,81,64,3.44,SD,1696352675
294,as sulayyil,20.4607,45.5779,33.14,12,0,3.28,SA,1696352675
295,sao joao da barra,-21.6403,-41.0511,25.05,89,100,4.38,BR,1696352676
296,reggane,26.7158,0.1714,36.29,15,4,6.41,DZ,1696352676
297,holualoa,19.6228,-155.9522,25.48,77,40,2.68,US,1696352677
298,xinyang,32.1228,114.0656,18.66,89,94,1.69,CN,1696352677
299,sisimiut,66.9395,-53.6735,2.2,67,14,1.69,GL,1696352678
300,xilin hot,43.9667,116.0333,4.68,37,20,1.45,CN,1696352678
301,mangrol,21.1167,70.1167,26.51,69,56,3.62,IN,1696352679
302,turpan,42.9333,89.1667,23.56,24,77,0.18,CN,1696352679
303,colchani,-20.3,-66.9333,15.64,15,7,6.74,BO,1696352680
304,ngetkib,7.3645,134.5148,27.14,89,100,0.0,PW,1696352681
305,offenbach,50.1,8.7667,17.47,84,0,5.14,DE,1696352681
306,georgetown,5.4112,100.3354,27.96,92,20,1.54,MY,1696352422
307,antonio enes,-16.2325,39.9086,24.5,61,24,5.69,MZ,1696352682
308,dellys,36.9172,3.9131,23.95,75,11,0.15,DZ,1696352682
309,remire-montjoly,4.9167,-52.2667,33.02,55,20,7.2,GF,1696352683
310,colonia,50.9333,6.95,16.09,74,75,7.2,DE,1696352681
311,nema,57.5067,50.5011,8.92,80,46,2.0,RU,1696352684
312,chernyshevskiy,63.0128,112.4714,-3.76,91,42,2.36,RU,1696352684
313,hadibu,12.65,54.0333,27.26,78,7,1.26,YE,1696352545
314,galeras,9.161,-75.0481,28.58,80,93,3.15,CO,1696352685
315,yemetsk,63.4721,41.7941,7.4,92,100,5.56,RU,1696352685
316,bomdila,27.25,92.4,14.74,94,74,1.64,IN,1696352686
317,fort bragg,35.139,-79.006,27.58,54,0,4.12,US,1696352686
318,lasem,-6.6922,111.4527,26.8,73,90,2.24,ID,1696352687
319,heiligenhafen,54.3667,10.9833,13.92,78,100,10.7,DE,1696352687
320,santo antonio do ica,-3.1022,-67.9397,39.4,27,47,1.84,BR,1696352688
321,yigo village,13.5361,144.8886,27.16,82,40,7.2,GU,1696352689
322,marka,1.7159,44.7717,26.09,87,82,5.65,SO,1696352689
323,naracoorte,-36.9579,140.7383,5.12,94,60,2.33,AU,1696352690
324,puerto aysen,-45.4,-72.7,8.46,94,100,1.05,CL,1696352690
325,karbala,32.616,44.0249,30.15,31,100,3.3,IQ,1696352691
326,emerald,-23.5333,148.1667,18.52,81,2,5.02,AU,1696352691
327,naze,28.3667,129.4833,25.51,86,72,3.63,JP,1696352692
328,archangelos,36.2149,28.1149,25.17,61,6,1.76,GR,1696352693
329,mount isa,-20.7333,139.5,23.87,69,77,4.12,AU,1696352481
330,wiesenburg,52.1167,12.45,16.47,91,100,5.59,DE,1696352693
331,mogocha,53.7333,119.7667,-1.25,75,83,2.68,RU,1696352694
332,bokhan,53.153,103.7714,4.31,91,97,1.9,RU,1696352694
333,mar del plata,-38.0023,-57.5575,16.4,89,100,2.57,AR,1696352404
334,touros,-5.1989,-35.4608,28.67,58,48,7.27,BR,1696352695
335,west fargo,46.875,-96.9004,26.0,55,75,8.75,US,1696352695
336,alvorada,-12.48,-49.1247,41.72,15,24,1.64,BR,1696352696
337,rouissat,31.9243,5.3502,31.04,22,0,6.69,DZ,1696352696
338,alice springs,-23.7,133.8833,18.75,32,0,5.66,AU,1696352697
339,charters towers,-20.1,146.2667,17.65,97,11,3.68,AU,1696352697
340,ust'-kulom,61.6864,53.6902,6.77,93,99,1.01,RU,1696352697
341,okha,53.5739,142.9478,6.43,87,97,4.1,RU,1696352698
342,khabarovsk,48.4808,135.0928,8.59,94,0,5.81,RU,1696352456
343,enshi,30.3,109.4833,19.34,98,100,0.35,CN,1696352699
344,caninde,-4.3589,-39.3117,36.47,28,55,3.15,BR,1696352699
345,cruzeiro do sul,-29.5128,-51.9853,26.38,64,41,0.92,BR,1696352700
346,horta,38.5333,-28.6333,22.8,80,20,7.72,PT,1696352700
347,rio grande,-32.035,-52.0986,23.06,76,72,7.43,BR,1696352700
348,luganville,-15.5333,167.1667,24.64,85,99,7.23,VU,1696352701
349,utrik,11.2278,169.8474,28.72,76,41,7.71,MH,1696352701
350,oranjemund,-28.55,16.4333,16.3,75,0,4.31,NA,1696352702
351,shalqar,47.8333,59.6,15.72,45,23,3.75,KZ,1696352702
352,san miguel,13.4833,-88.1833,32.57,60,98,0.79,SV,1696352444
353,usinsk,65.9939,57.5281,3.37,79,100,4.02,RU,1696352703
354,island harbour,50.724,-1.2758,17.21,68,37,0.89,GB,1696352704
355,sutherlin,43.3901,-123.3126,16.0,58,100,3.09,US,1696352704
356,east end,34.5507,-92.341,31.19,43,60,0.45,US,1696352705
357,yekaterinoslavka,50.3734,129.1139,7.94,81,99,3.15,RU,1696352705
358,jwaneng,-24.6004,24.7303,24.04,21,3,4.87,BW,1696352706
359,severo-yeniseyskiy,60.3725,93.0408,3.65,97,100,4.92,RU,1696352706
360,manhuacu,-20.2581,-42.0336,28.29,62,100,1.72,BR,1696352707
361,chibougamau,49.9168,-74.3659,12.79,88,100,1.54,CA,1696352554
362,namsos,64.4662,11.4957,9.03,87,0,0.0,NO,1696352708
363,safranbolu,41.2508,32.6942,12.85,76,53,0.83,TR,1696352708
364,suileng,47.25,127.0833,10.29,95,99,4.32,CN,1696352708
365,korla,41.7597,86.1469,18.82,30,34,1.36,CN,1696352709
366,belmonte,-15.8631,-38.8828,27.67,67,88,6.25,BR,1696352709
367,okhotsk,59.3833,143.3,6.74,59,13,1.8,RU,1696352710
368,griffith,41.5284,-87.4237,30.03,46,0,4.12,US,1696352710
369,tsengel,49.4783,100.8894,3.9,49,0,1.54,MN,1696352711
370,filadelfia,39.9523,-75.1638,27.96,62,40,2.06,US,1696352711
371,saint-philippe,-21.3585,55.7679,22.77,86,60,6.06,RE,1696352712
372,general salgado,-20.6483,-50.3606,35.45,30,22,2.26,BR,1696352712
373,chegdomyn,51.1167,133.0167,4.62,86,56,0.89,RU,1696352713
374,barkly west,-28.5354,24.5215,32.6,17,0,3.78,ZA,1696352424
375,ishqoshim,36.7248,71.6133,6.76,84,85,0.37,TJ,1696352713
376,yeraliyev,43.2,51.65,22.24,33,100,4.91,KZ,1696352714
377,cooper's town,26.8667,-77.5167,27.19,65,14,5.06,BS,1696352714
378,ola,59.5833,151.2833,6.34,58,92,4.41,RU,1696352715
379,gouloure,12.2306,-1.9289,29.85,46,89,6.17,BF,1696352715
380,alaghsas,17.0187,8.0168,34.94,24,20,6.17,NE,1696352716
381,swakopmund,-22.6833,14.5333,15.95,76,52,5.49,NA,1696352716
382,smarhon,54.4791,26.3934,19.67,55,93,7.28,BY,1696352717
383,brisas de zicatela,15.8369,-97.0419,31.29,55,75,1.54,MX,1696352717
384,saudarkrokur,65.7461,-19.6394,4.58,91,100,2.78,IS,1696352718
385,yeed,4.55,43.0333,28.93,52,34,7.44,SO,1696352718
386,acapulco de juarez,16.8634,-99.8901,30.22,68,86,2.53,MX,1696352443
387,tromso,69.6496,18.957,4.01,81,75,3.09,NO,1696352719
388,luba,3.4568,8.5547,27.94,84,98,2.49,GQ,1696352720
389,fort smith,35.3859,-94.3986,27.03,61,0,2.57,US,1696352436
390,rexburg,43.826,-111.7897,9.99,76,100,3.6,US,1696352710
391,federal,-30.9547,-58.7833,23.3,44,40,2.84,AR,1696352722
392,kalmunai,7.4167,81.8167,25.89,85,76,5.73,LK,1696352722
393,bonthe,7.5264,-12.505,27.33,78,76,5.48,SL,1696352722
394,irymple,-34.25,142.1667,10.61,94,100,3.44,AU,1696352723
395,tangalle,6.024,80.7911,25.22,88,99,2.14,LK,1696352632
396,turar ryskulov,42.5333,70.3333,13.44,43,0,3.84,KZ,1696352724
397,erdenet,49.0333,104.0833,1.6,80,0,1.88,MN,1696352725
398,kavaratti,10.5669,72.642,27.47,75,82,2.07,IN,1696352725
399,mandalgovi,45.7625,106.2708,4.08,65,0,3.68,MN,1696352726
400,romblon,12.5751,122.2708,28.05,78,100,9.93,PH,1696352727
401,bulgan,48.8125,103.5347,3.54,70,0,0.96,MN,1696352728
402,juan griego,11.0817,-63.9655,37.07,53,100,5.14,VE,1696352728
403,tolanaro,-25.0319,46.9987,20.04,68,75,4.12,MG,1696352729
404,olyokminsk,60.3736,120.4264,-5.56,95,44,0.89,RU,1696352729
405,nar'yan-mar,67.6713,53.087,3.95,78,100,9.39,RU,1696352730
406,joshimath,30.5667,79.5667,17.16,75,11,0.76,IN,1696352730
407,port elizabeth,-33.918,25.5701,18.94,89,75,4.63,ZA,1696352731
408,urucara,-2.5364,-57.76,40.84,22,100,3.11,BR,1696352731
409,tawau,4.2498,117.8871,26.07,88,82,0.45,MY,1696352732
410,pangai,-19.8,-174.35,22.64,79,95,10.1,TO,1696352733
411,greenville,35.6127,-77.3663,26.18,63,40,3.6,US,1696352430
412,trashi yangtse,27.6116,91.498,18.3,93,82,0.85,BT,1696352733
413,ulladulla,-35.35,150.4667,21.9,41,100,3.44,AU,1696352734
414,ashtabula,41.7001,-80.7665,27.46,58,0,0.0,US,1696352735
415,fortuna,40.5982,-124.1573,14.64,97,100,4.12,US,1696352735
416,lata,40.1629,-8.3327,27.18,48,17,3.25,PT,1696352735
417,altamira,-3.2033,-52.2064,35.05,46,40,3.6,BR,1696352483
418,torquay,50.4638,-3.5143,16.03,75,22,3.13,GB,1696352736
419,markala,13.7021,-6.0659,37.14,25,95,6.53,ML,1696352737
420,san fernando de apure,7.8878,-67.4724,33.62,60,79,0.6,VE,1696352738
421,malvan,16.0667,73.4667,25.6,81,42,1.24,IN,1696352738
422,richards bay,-28.783,32.0377,21.49,67,0,6.63,ZA,1696352562
423,crane,31.3974,-102.3501,28.28,55,89,6.78,US,1696352739
424,ploudalmezeau,48.5333,-4.65,16.21,67,40,3.6,FR,1696352740
425,santa justina,13.3967,123.4731,25.04,94,100,2.28,PH,1696352740
426,biltine,14.5333,20.9167,26.23,70,58,6.36,TD,1696352741
427,inarajan village,13.2736,144.7484,28.08,89,95,5.82,GU,1696352741
428,ulsteinvik,62.3432,5.8487,13.2,85,98,3.58,NO,1696352586
429,savanna-la-mar,18.219,-78.1332,31.97,64,65,1.68,JM,1696352742
430,tuy hoa,13.0833,109.3,25.51,92,15,1.61,VN,1696352742
431,camana,-16.6228,-72.7111,20.88,76,50,5.54,PE,1696352743
432,puerto san jose,13.9256,-90.8244,29.88,68,88,1.63,GT,1696352744
433,el carmen de bolivar,9.7174,-75.1202,29.72,73,100,1.76,CO,1696352744
434,santiago,-33.4569,-70.6483,13.53,71,75,4.12,CL,1696352703
435,fairmont,39.4851,-80.1426,27.33,60,0,1.61,US,1696352745
436,stropkov,49.2021,21.6522,19.16,61,8,3.68,SK,1696352745
437,bardai,11.65,7.2333,26.11,66,99,2.71,NG,1696352746
438,brookings,44.3114,-96.7984,21.19,82,75,6.69,US,1696352746
439,ostersund,63.1792,14.6357,8.12,81,0,2.06,SE,1696352747
440,dwarka,22.2394,68.9678,27.11,72,6,3.24,IN,1696352747
441,lihue,21.9789,-159.3672,22.58,88,0,3.6,US,1696352748
442,monte aprazivel,-20.7725,-49.7142,34.36,31,10,3.08,BR,1696352748
443,shanwei,22.782,115.3475,27.68,87,100,3.3,CN,1696352748
444,st. john's,47.5649,-52.7093,17.31,73,75,5.14,CA,1696352586
445,hornell,42.3279,-77.6611,29.5,60,0,2.68,US,1696352664
446,comodoro rivadavia,-45.8667,-67.5,15.92,31,20,6.69,AR,1696352491
447,shingu,33.7333,135.9833,20.38,94,100,2.4,JP,1696352750
448,squamish,49.7014,-123.1512,13.95,92,64,0.5,CA,1696352494
449,kolonia town,6.964,158.206,26.0,94,75,1.54,FM,1696352751
450,san julian,21.0167,-102.1667,23.54,45,81,3.76,MX,1696352751
451,greymouth,-42.4667,171.2,2.53,92,73,3.17,NZ,1696352516
452,tamanrasset,22.785,5.5228,28.95,23,40,4.63,DZ,1696352555
453,la ronge,55.1001,-105.2842,8.14,87,100,3.09,CA,1696352580
454,kaitong,44.8135,123.15,11.04,34,3,6.48,CN,1696352753
455,copainala,17.0833,-93.2,29.01,66,89,1.77,MX,1696352753
456,cabedelo,-6.9811,-34.8339,29.37,62,61,5.93,BR,1696352753
457,altamont,42.2068,-121.7372,13.91,75,75,5.14,US,1696352745
458,bereeda,11.8704,51.0579,28.34,72,6,2.35,SO,1696352754
459,trail,49.0998,-117.7022,17.05,58,81,0.9,CA,1696352578
460,sesheke,-17.4759,24.2968,30.04,19,98,4.92,ZM,1696352755
461,sarandi del yi,-33.35,-55.6333,19.71,59,100,5.66,UY,1696352686
462,kibaya,-5.3,36.5667,20.06,50,83,4.3,TZ,1696352756
463,temiskaming shores,47.4938,-79.7153,25.89,38,3,4.09,CA,1696352756
464,amahai,-3.3333,128.9167,25.02,85,95,1.28,ID,1696352757
465,machico,32.7,-16.7667,29.28,76,20,9.26,PT,1696352757
466,eastham,41.8301,-69.9739,24.01,62,0,4.12,US,1696352667
467,tukrah,32.5341,20.5791,23.46,63,0,8.24,LY,1696352758
468,santa sylvina,-27.8326,-61.1375,36.7,27,35,3.73,AR,1696352758
469,belomorsk,64.5232,34.7668,7.04,94,91,3.09,RU,1696352759
470,sechura,-5.5569,-80.8222,26.46,55,60,6.03,PE,1696352759
471,isangel,-19.55,169.2667,21.91,81,77,7.52,VU,1696352760
472,puerto carreno,6.189,-67.4859,32.99,62,20,3.6,CO,1696352760
473,ankazoabo,-22.2833,44.5167,24.01,38,0,5.45,MG,1696352760
474,papao,-17.75,-149.55,24.82,80,94,8.65,PF,1696352761
475,conduaga,8.862,117.4893,26.3,83,100,2.0,PH,1696352761
476,ntoum,0.3833,9.7833,27.87,89,88,2.78,GA,1696352762
477,hobyo,5.3505,48.5268,26.2,88,31,7.44,SO,1696352762
478,catumbela,-12.4314,13.5472,23.43,83,59,2.87,AO,1696352763
479,den burg,53.0542,4.7972,16.1,72,20,10.8,NL,1696352763
480,nabire,-3.3667,135.4833,24.08,90,77,1.42,ID,1696352764
481,inhambane,-23.865,35.3833,23.89,64,20,4.02,MZ,1696352765
482,grand island,40.925,-98.342,24.45,58,75,9.26,US,1696352765
483,jayapura,-2.5333,140.7,25.66,91,72,2.64,ID,1696352765
484,mana,5.6592,-53.7767,31.47,64,21,7.08,GF,1696352766
485,darwin,-12.4611,130.8418,26.99,78,70,2.57,AU,1696352767
486,inda silase,14.1031,38.2829,18.29,45,5,2.8,ET,1696352767
487,prado,-17.3411,-39.2208,28.0,67,87,7.84,BR,1696352767
488,airuk,7.2772,168.8203,28.73,77,47,6.36,MH,1696352768
489,satipo,-11.2522,-74.6386,29.47,68,51,1.4,PE,1696352768
490,chifeng,42.2683,118.9636,10.08,56,6,1.39,CN,1696352768
491,bakri,2.0441,102.6527,26.67,86,94,0.64,MY,1696352769
492,kincardine,56.0667,-3.7167,13.99,84,87,6.26,GB,1696352770
493,amursk,50.2261,136.8994,6.1,92,19,1.28,RU,1696352770
494,deqen,29.9618,90.7188,9.61,82,31,2.34,CN,1696352770
495,arafat,21.3594,39.9664,31.82,56,0,1.34,SA,1696352771
496,kununurra,-15.7667,128.7333,25.99,78,76,0.0,AU,1696352543
497,khash,28.2211,61.2158,25.38,17,0,1.68,IR,1696352772
498,levoca,49.0217,20.5921,17.07,68,11,2.59,SK,1696352737
499,mandiana,10.6333,-8.6833,28.17,78,87,1.66,GN,1696352773
500,abepura,-2.6333,140.5833,25.45,83,100,2.06,ID,1696352773
501,madang,-5.2246,145.7966,24.62,92,90,0.87,PG,1696352774
502,prince rupert,54.3161,-130.3201,11.83,91,100,11.83,CA,1696352774
503,lerwick,60.1545,-1.1494,11.0,83,54,9.77,GB,1696352775
504,aykhal,66.0,111.5,-7.74,94,30,3.58,RU,1696352775
505,timimoun,29.2639,0.231,33.21,16,0,9.26,DZ,1696352776
506,rockland,41.1668,-74.0496,27.39,65,3,1.13,US,1696352776
507,zaragoza,41.6561,-0.8773,27.79,40,0,8.23,ES,1696352774
508,kendari,-3.945,122.4989,23.58,94,11,0.18,ID,1696352622
509,la sarre,48.8002,-79.1996,24.31,56,39,4.04,CA,1696352582
510,jeddah,21.5169,39.2192,31.92,66,20,2.06,SA,1696352561
511,aalborg,57.048,9.9187,12.96,88,40,5.14,DK,1696352778
512,minab,27.1467,57.0801,32.0,46,0,0.94,IR,1696352779
513,lospalos,-8.5186,127.0025,20.96,94,21,1.31,TL,1696352779
514,mammoth lakes,37.6485,-118.9721,11.4,53,0,2.06,US,1696352780
515,karachi,24.9056,67.0822,27.9,74,20,2.57,PK,1696352186
516,zeya,53.75,127.2667,7.16,92,100,0.89,RU,1696352780
517,labasa,-16.4167,179.3833,21.6,89,72,3.43,FJ,1696352781
518,san andres,12.5847,-81.7006,30.01,79,40,2.06,CO,1696352781
519,namdrik,5.5994,168.1028,28.22,75,55,2.08,MH,1696352782
520,igarka,67.4667,86.5833,0.41,78,95,7.61,RU,1696352782
521,chongjin,41.7956,129.7758,15.41,58,69,1.49,KP,1696352783
522,imperatriz,-5.5264,-47.4917,36.03,46,40,1.03,BR,1696352774
523,tidjikja,18.5564,-11.4271,39.85,10,62,6.83,MR,1696352783
524,lardero,42.4269,-2.4615,22.4,53,75,2.57,ES,1696352784
525,judenburg,47.1667,14.6667,18.4,72,75,1.54,AT,1696352784
526,nova vicosa,-17.8919,-39.3719,28.09,67,68,7.53,BR,1696352607
527,mombetsu,44.3525,143.3525,13.07,76,94,1.83,JP,1696352786
528,skeldon,5.8833,-57.1333,34.55,45,91,3.76,GY,1696352786
529,buka,40.8108,69.1986,18.62,21,36,2.9,UZ,1696352787
530,shatura,55.5725,39.5368,10.39,65,94,2.94,RU,1696352788
531,kandiari,26.9156,68.5216,32.37,17,10,4.15,PK,1696352788
532,barra,-11.0894,-43.1417,35.33,27,16,3.54,BR,1696352545
533,bridgewater,44.3835,-64.5155,25.35,50,37,7.72,CA,1696352569
534,lubao,14.9167,120.55,28.04,89,100,2.35,PH,1696352789
535,buurhakaba,2.8026,44.0781,27.19,67,73,8.27,SO,1696352790
536,komsomol'skiy,43.9783,46.6985,16.71,75,100,1.42,RU,1696352790
537,megion,61.0296,76.1136,9.01,90,100,1.42,RU,1696352791
538,vanersborg,58.3807,12.3234,10.97,87,75,2.57,SE,1696352791
539,de aar,-30.6497,24.0123,28.73,18,0,5.35,ZA,1696352792
540,senillosa,-39.0,-68.4167,17.88,26,2,3.58,AR,1696352793
541,kimberley,-28.7323,24.7623,31.83,18,0,2.57,ZA,1696352793
542,daru,-9.0763,143.2092,24.66,82,14,4.49,PG,1696352793
543,chadan,51.2833,91.5833,5.63,67,0,1.99,RU,1696352794
544,toliara,-23.35,43.6667,26.37,44,0,5.35,MG,1696352794
545,katima mulilo,-17.5,24.2667,30.08,19,98,4.76,NA,1696352795
546,zag,46.9441,99.165,1.25,42,0,1.89,MN,1696352795
547,pico truncado,-46.7949,-67.9573,13.34,30,86,1.58,AR,1696352795
548,leava,-14.3,-178.1667,26.61,82,86,10.24,WF,1696352796
549,thunder bay,48.4001,-89.3168,21.99,78,40,2.57,CA,1696352797
550,cidreira,-30.1811,-50.2056,18.6,72,36,6.63,BR,1696352797
551,kourou,5.1552,-52.6478,33.03,59,17,5.42,GF,1696352797
552,sidareja,-7.4846,108.7923,22.66,96,100,0.67,ID,1696352798
553,san antonio,29.4241,-98.4936,32.93,60,0,1.54,US,1696352647
554,kimbe,-5.5502,150.1429,23.81,95,94,1.96,PG,1696352799
555,uglekamensk,43.2172,133.2303,11.16,88,100,0.83,RU,1696352799
556,puerto baquerizo moreno,-0.9,-89.6,25.55,78,75,7.72,EC,1696352574
557,apan,19.7167,-98.4167,19.15,53,40,1.41,MX,1696352564
558,sengkang,-4.1279,120.0297,22.68,89,8,1.26,ID,1696352801
